time(millisecond),datetime(utc),latitude,longitude,height_above_takeoff(feet),height_above_ground_at_drone_location(feet),ground_elevation_at_drone_location(feet),altitude_above_seaLevel(feet),height_sonar(feet),speed(mph),distance(feet),mileage(feet),satellites,gpslevel,voltage(v),max_altitude(feet),max_ascent(feet),max_speed(mph),max_distance(feet), xSpeed(mph), ySpeed(mph), zSpeed(mph), compass_heading(degrees), pitch(degrees), roll(degrees),isPhoto,isVideo,rc_elevator,rc_aileron,rc_throttle,rc_rudder,rc_elevator(percent),rc_aileron(percent),rc_throttle(percent),rc_rudder(percent),gimbal_heading(degrees),gimbal_pitch(degrees),gimbal_roll(degrees),battery_percent,voltageCell1,voltageCell2,voltageCell3,voltageCell4,voltageCell5,voltageCell6,current(A),battery_temperature(f),altitude(feet),ascent(feet),flycStateRaw,flycState,message
0,7/12/2021 19:52,38.1041538,-84.75724388,0,0,893.5514121,893.5514121,0.328084,0,0,0,15,5,0,893.5514121,0,0,0,0,0,0,122.8,1.5,-0.1,0,0,1072,1024,1024,1021,7,0,0,0,127.3,0,0,98,4.256,4.264,4.265,4.264,0,0,0,84.11,893.5514121,0,41,Motors_Started,
100,7/12/2021 19:52,38.1041538,-84.75724383,0,0,893.5514121,893.5514121,0.328084,0,0.014866142,0.014866142,15,5,0,893.5514121,0,0,0.014866142,0,0,0,122.8,1.5,-0.1,0,0,1024,1024,1024,1024,0,0,0,0,126.8,0,0,98,4.256,4.264,4.265,4.264,0,0,0,84.11,893.5514121,0,41,Motors_Started,
200,7/12/2021 19:52,38.10415379,-84.75724378,0,0,893.5514121,893.5514121,0.328084,0,0.029300591,0.029380775,15,5,17.036,893.5514121,0,0,0.029300591,0,0,0,122.7,1.5,-0.1,0,0,1024,1024,1024,1024,0,0,0,0,126.8,0,0,98,4.256,4.264,4.265,4.264,0,0,1.218,84.11,893.5514121,0,41,Motors_Started,Setting new Return-To-Home altitude to 50m (164 ft). Data Recorder File Index is 221. Setting new Maximum Flight Altitude to 120m (394 ft)
300,7/12/2021 19:52,38.10415379,-84.75724373,0,0,893.5514121,893.5514121,0.328084,0,0.044131891,0.04421949,15,5,17.036,893.5514121,0,0,0.044131891,0,0,0,122.8,1.5,-0.1,0,0,1023,1024,1024,1024,0,0,0,0,124.3,0,0,98,4.256,4.264,4.265,4.264,0,0,1.218,84.11,893.5514121,0,41,Motors_Started,
400,7/12/2021 19:52,38.10415378,-84.75724368,0,0,893.5514121,893.5514121,0.328084,0,0.058700461,0.058966209,15,5,17.036,893.5514121,0,0,0.058700461,0,0,0,122.8,1.5,-0.1,0,0,1024,1024,1024,1024,0,0,0,0,123.9,0,0,98,4.256,4.264,4.265,4.264,0,0,1.218,84.11,893.5514121,0,41,Motors_Started,
500,7/12/2021 19:52,38.10415377,-84.75724363,0,0,893.5514121,893.5514121,0.328084,0,0.073888782,0.074155186,15,5,17.036,893.5514121,0,0,0.073888782,0,0,0,122.8,1.5,-0.1,0,0,1023,1024,1024,1024,0,0,0,0,123.6,0,0,98,4.256,4.264,4.265,4.264,0,0,1.218,84.11,893.5514121,0,41,Motors_Started,
700,7/12/2021 19:52,38.10415376,-84.75724353,0,0,893.5514121,893.5514121,0.328084,0,0.103266408,0.103557418,15,5,17.036,893.5514121,0,0,0.103266408,0,0,0,122.8,1.5,-0.1,0,0,1024,1024,1024,1024,0,0,0,0,123.5,0,0,98,4.256,4.264,4.265,4.264,0,0,1.218,84.11,893.5514121,0,41,Motors_Started,
800,7/12/2021 19:52,38.10415374,-84.75724349,0,0,893.5514121,893.5514121,0.328084,0,0.11451083,0.116161421,15,5,17.036,893.5514121,0,0,0.11451083,0,0,0,122.8,1.5,-0.1,0,0,1024,1024,1024,1024,0,0,0,0,123.5,0,0,98,4.256,4.264,4.265,4.264,0,0,1.218,84.11,893.5514121,0,41,Motors_Started,
900,7/12/2021 19:52,38.1041537,-84.75724347,0,0,893.5514121,893.5514121,0.328084,0,0.123225398,0.129801185,15,5,17.036,893.5514121,0,0,0.123225398,0,0,0,122.8,1.6,-0.1,0,0,1024,1024,1027,1024,0,0,0,0,123.5,0,0,98,4.256,4.264,4.265,4.264,0,0,1.218,84.11,893.5514121,0,41,Motors_Started,
1000,7/12/2021 19:52,38.10415367,-84.75724346,0,0,893.5514121,893.5514121,0.328084,0,0.131691605,0.144652892,15,5,17.036,893.5514121,0,0,0.131691605,0,0,0,122.8,1.7,-0.2,0,0,1024,1024,1025,1022,0,0,0,0,123.3,0,0,98,4.256,4.264,4.265,4.264,0,0,1.218,84.11,893.5514121,0,41,Motors_Started,
1100,7/12/2021 19:52,38.10415364,-84.75724343,0,0,893.5514121,893.5514121,0.328084,0,0.142842524,0.156401908,15,5,17.036,893.5514121,0,0,0.142842524,0,0,0,122.8,1.5,-0.1,0,0,1024,1024,1024,1024,0,0,0,0,123.3,0,0,98,4.256,4.264,4.265,4.264,0,0,1.218,84.11,893.5514121,0,41,Motors_Started,
1200,7/12/2021 19:52,38.10415362,-84.75724339,0,0,893.5514121,893.5514121,0.328084,0,0.155185044,0.169259192,15,5,17.036,893.5514121,0,0,0.155185044,0,0,0,122.8,1.6,-0.1,0,0,1024,1024,1024,1024,0,0,0,0,123.2,0,0,98,4.242,4.25,4.253,4.253,0,0,1.274,84.11,893.5514121,0,41,Motors_Started,
1300,7/12/2021 19:52,38.10415361,-84.75724335,0,0,893.5514121,893.5514121,0.328084,0,0.167382879,0.181464573,15,5,17.036,893.5514121,0,0,0.167382879,0,0,0,122.7,1.6,-0.1,0,0,1024,1024,1027,1023,0,0,0,0,123.2,0,0,98,4.242,4.25,4.253,4.253,0,0,1.274,84.11,893.5514121,0,41,Motors_Started,
1400,7/12/2021 19:52,38.1041536,-84.75724333,0,0,893.5514121,893.5514121,0.328084,0,0.176201777,0.190286751,15,5,17.036,893.5514121,0,0,0.176201777,0,0,0,122.7,1.6,-0.2,0,0,1024,1024,1043,1023,0,0,3,0,123.2,0,0,98,4.242,4.25,4.253,4.253,0,0,1.274,84.11,893.5514121,0,41,Motors_Started,
1500,7/12/2021 19:52,38.10415359,-84.75724331,0,0,893.5514121,893.5514121,0.328084,0,0.181262473,0.195348431,15,5,17.036,893.5514121,0,0,0.181262473,0,0,0,122.7,1.7,-0.1,0,0,1024,1024,1060,1023,0,0,5,0,123.2,0,0,98,4.242,4.25,4.253,4.253,0,0,1.274,84.11,893.5514121,0,10,Assisted_Takeoff,
1600,7/12/2021 19:52,38.10415357,-84.75724329,0,0,893.5514121,893.5514121,0.328084,0,0.18923393,0.204301516,15,5,17.036,893.5514121,0,0,0.18923393,0,0,0,122.7,1.6,-0.1,0,0,1024,1024,1068,1023,0,0,7,0,123.2,0,0,98,4.242,4.25,4.253,4.253,0,0,1.274,84.11,893.5514121,0,10,Assisted_Takeoff,
1700,7/12/2021 19:52,38.10415354,-84.75724326,0,0,893.5514121,893.5514121,0.328084,0,0.20273229,0.219120086,15,5,17.036,893.5514121,0,0,0.20273229,0,0,0,122.7,1.5,-0.1,0,0,1024,1024,1103,1023,0,0,12,0,123.1,0,0,98,4.242,4.25,4.253,4.253,0,0,1.274,84.11,893.5514121,0,10,Assisted_Takeoff,
1800,7/12/2021 19:52,38.10415351,-84.75724322,0,0,893.5514121,893.5514121,0.328084,0,0.216885834,0.234370742,15,5,17.036,893.5514121,0,0,0.216885834,0,0,0,122.7,1.5,-0.1,0,0,1024,1024,1159,1023,0,0,20,0,123.1,0,0,98,4.242,4.25,4.253,4.253,0,0,1.274,84.11,893.5514121,0,10,Assisted_Takeoff,
1900,7/12/2021 19:52,38.10415349,-84.75724318,0,0,893.5514121,893.5514121,0.328084,0,0.23100296,0.24850132,15,5,17.036,893.5514121,0,0,0.23100296,0,0,0,122.7,1.5,-0.1,0,0,1024,1024,1258,1024,0,0,35,0,123.1,0,0,98,4.242,4.25,4.253,4.253,0,0,1.274,84.11,893.5514121,0,10,Assisted_Takeoff,
2100,7/12/2021 19:52,38.10415347,-84.75724312,0,0,893.5514121,893.5514121,0.328084,0,0.248171596,0.265712607,15,5,17.036,893.5514121,0,0,0.248171596,0,0,0,122.7,1.6,-0.2,0,0,1024,1024,1318,1024,0,0,45,0,123.1,0,0,98,4.242,4.25,4.253,4.253,0,0,1.274,84.11,893.5514121,0,10,Assisted_Takeoff,
2200,7/12/2021 19:52,38.10415347,-84.75724311,0,0,893.5514121,893.5514121,0.328084,0,0.253292987,0.271225402,15,5,17.036,893.5514121,0,0,0.253292987,0,0,0,122.7,1.7,-0.2,0,0,1024,1024,1340,1024,0,0,48,0,123.1,0,0,98,4.242,4.25,4.253,4.253,0,0,1.274,84.11,893.5514121,0,10,Assisted_Takeoff,
2300,7/12/2021 19:52,38.10415347,-84.75724308,0,0,893.5514121,893.5514121,0.328084,0,0.26053741,0.279930455,15,5,17.036,893.5514121,0,0,0.26053741,0,0,0,122.7,2.3,-0.2,0,0,1024,1024,1391,1024,0,0,56,0,123.1,0,0,98,4.242,4.25,4.253,4.253,0,0,1.274,84.11,893.5514121,0,10,Assisted_Takeoff,
2400,7/12/2021 19:52,38.10415349,-84.75724307,0,0,893.5514121,893.5514121,0.328084,0,0.257684063,0.288006899,15,5,17.036,893.5514121,0,0,0.26053741,0,0,0,122.6,3.9,-1,0,0,1024,1024,1449,1024,0,0,64,0,123.1,0,0,98,4.242,4.25,4.253,4.253,0,0,1.274,84.11,893.5514121,0,10,Assisted_Takeoff,
2600,7/12/2021 19:52,38.10415375,-84.75724328,0,0,893.5514121,893.5514121,0.328084,0.4921268,0.174945872,0.397509855,15,5,17.036,893.5514121,0,0.4921268,0.26053741,0.447388,-0.223694,-0.894776,122.4,2.6,-0.5,0,0,1024,1024,1449,1024,0,0,64,0,123.1,0,0,98,4.242,4.25,4.253,4.253,0,0,1.274,84.11,893.5514121,0,6,P-GPS,
2700,7/12/2021 19:52,38.104154,-84.75724348,0,0,893.5514121,893.5514121,0.656168,0.4921268,0.138506566,0.506292667,15,5,17.036,893.5514121,0,0.4921268,0.26053741,0.447388,-0.223694,-1.342164,122.3,0.5,0.7,0,0,1024,1024,1474,1024,0,0,68,0,123,0,0,98,4.242,4.25,4.253,4.253,0,0,1.274,84.11,893.5514121,0,6,P-GPS,
2800,7/12/2021 19:52,38.10415427,-84.75724372,0.328084,0.328084,893.5514121,893.8794961,0.984252,0.4921268,0.178212276,0.626535453,15,5,17.036,893.8794961,0.328084,0.4921268,0.26053741,0.447388,-0.223694,-2.013246,122.3,-1.1,0.3,0,0,1024,1024,1476,1024,0,0,68,0,123,0,0,98,4.242,4.25,4.253,4.253,0,0,1.274,84.11,893.8794961,0.328084,6,P-GPS,
2900,7/12/2021 19:52,38.10415452,-84.75724396,0.656168,0.6889764,893.5186037,894.2075801,1.312336,0.4921268,0.265629274,0.742414722,15,5,17.036,894.2075801,0.656168,0.4921268,0.265629274,0.447388,-0.223694,-2.684328,122.5,-1.9,0.3,0,0,1024,1024,1476,1024,0,0,68,0,123,0,0,98,4.242,4.25,4.253,4.253,0,0,1.274,84.11,894.2075801,0.656168,6,P-GPS,
3000,7/12/2021 19:52,38.10415481,-84.75724418,0.984252,1.0170604,893.5186037,894.5356641,1.64042,0.3131716,0.377972453,0.863136511,14,5,17.036,894.5356641,0.984252,0.4921268,0.377972453,0.223694,-0.223694,-3.35541,122.7,-2.6,0.5,0,0,1024,1024,1470,1024,0,0,68,0,123,0,0,98,4.242,4.25,4.253,4.253,0,0,1.274,84.11,894.5356641,0.984252,6,P-GPS,
3100,7/12/2021 19:52,38.1041551,-84.75724432,1.64042,1.6732284,893.5186037,895.1918321,2.296588,0.3131716,0.492099753,0.97812011,14,5,17.036,895.1918321,1.64042,0.4921268,0.492099753,0.223694,0,-4.026492,122.8,-3.2,0.6,0,0,1024,1024,1474,1024,0,0,68,0,123,0,0,98,4.242,4.25,4.253,4.253,0,0,1.274,84.11,895.1918321,1.64042,6,P-GPS,
3200,7/12/2021 19:52,38.10415541,-84.75724436,2.296588,2.3293964,893.5186037,895.8480001,2.952756,0.223694,0.603021673,1.090324838,15,5,16.41,895.8480001,2.296588,0.4921268,0.603021673,0.223694,0,-4.921268,122.9,-3.5,0.1,0,0,1024,1024,1487,1024,0,0,70,0,123,0,0,98,4.178,4.195,4.231,4.242,0,0,3.48,84.11,895.8480001,2.296588,6,P-GPS,Home Point recorded. Return-to-Home Altitude:164FT
3300,7/12/2021 19:52,38.1041557,-84.75724424,3.28084,3.3136484,893.5186037,896.8322521,3.937008,0.223694,0.700675875,1.20172576,15,5,16.41,896.8322521,3.28084,0.4921268,0.700675875,0.223694,0,-5.59235,122.7,-2.7,1.6,0,0,1024,1024,1495,1021,0,0,71,0,123,0,0,98,4.178,4.195,4.231,4.242,0,0,3.48,84.11,896.8322521,3.28084,6,P-GPS,
3400,7/12/2021 19:52,38.10415599,-84.75724399,3.937008,3.9698164,893.5186037,897.4884201,4.92126,0.223694,0.801223779,1.33131894,15,5,16.41,897.4884201,3.937008,0.4921268,0.801223779,0.223694,0,-6.263432,122.8,-2.1,4,0,0,1024,1024,1515,872,0,0,74,-23,123,0,0,98,4.178,4.195,4.231,4.242,0,0,3.48,84.11,897.4884201,3.937008,6,P-GPS,
3500,7/12/2021 19:52,38.1041562,-84.75724375,4.92126,4.9540684,893.5186037,898.4726721,5.905512,0.223694,0.878044648,1.433589285,15,5,16.41,898.4726721,4.92126,0.4921268,0.878044648,0,0,-6.934514,122.8,-0.4,3.7,0,0,1024,1024,1523,767,0,0,76,-39,122.3,0,0,98,4.178,4.195,4.231,4.242,0,0,3.48,84.11,898.4726721,4.92126,6,P-GPS,
3600,7/12/2021 19:52,38.10415636,-84.75724355,6.233596,6.2664044,893.5186037,899.7850081,6.889764,0,0.941768403,1.515725114,15,5,16.41,899.7850081,6.233596,0.4921268,0.941768403,0,0,-7.381902,120.6,0.6,2.4,0,0,1024,1024,1592,690,0,0,86,-51,120.7,0,0,98,4.178,4.195,4.231,4.242,0,0,3.48,84.11,899.7850081,6.233596,6,P-GPS,
3700,7/12/2021 19:52,38.10415649,-84.75724352,7.217848,7.2506564,893.5186037,900.7692601,7.874016,0.223694,0.989511187,1.563736927,15,5,16.41,900.7692601,7.217848,0.4921268,0.989511187,0,-0.223694,-7.605596,116.1,-1.4,1.4,0,0,1024,1024,1602,678,0,0,88,-52,118.5,0,0,98,4.178,4.195,4.231,4.242,0,0,3.48,84.11,900.7692601,7.217848,6,P-GPS,
3800,7/12/2021 19:52,38.10415661,-84.75724352,8.530184,8.5629924,893.5186037,902.0815961,9.186352,0,1.030928511,1.605341259,15,5,16.41,902.0815961,8.530184,0.4921268,1.030928511,0,0,-8.052984,109.9,-2.6,0.4,0,0,1024,1024,1620,663,0,0,90,-55,115.4,0,0,98,4.178,4.195,4.231,4.242,0,0,3.48,84.11,902.0815961,8.530184,6,P-GPS,
3900,7/12/2021 19:52,38.10415668,-84.75724349,9.514436,9.514436,893.5514121,903.0658481,10.170604,0,1.058494128,1.633392441,15,5,16.41,903.0658481,9.514436,0.4921268,1.058494128,0,0,-8.500372,103.4,-1.8,0.3,0,0,1024,1024,1627,692,0,0,91,-50,110.4,0,0,98,4.178,4.195,4.231,4.242,0,0,3.48,84.11,903.0658481,9.514436,6,P-GPS,
4000,7/12/2021 19:52,38.10415673,-84.75724339,10.826772,10.826772,893.5514121,904.3781841,11.48294,0,1.080308434,1.666663439,15,5,16.41,904.3781841,10.826772,0.4921268,1.080308434,0,0,-8.94776,96.9,-0.1,0.1,0,0,1024,1024,1630,692,0,0,92,-50,104.7,0,0,98,4.178,4.195,4.231,4.242,0,0,3.48,84.11,904.3781841,10.826772,6,P-GPS,
4100,7/12/2021 19:52,38.10415676,-84.75724329,12.139108,12.139108,893.5514121,905.6905201,12.795276,0,1.093992817,1.698320264,15,5,16.41,905.6905201,12.139108,0.4921268,1.093992817,0,0,-9.171454,91.3,0.4,0.6,0,0,1024,1024,1629,650,0,0,92,-57,98.8,0,0,98,4.178,4.195,4.231,4.242,0,0,3.48,84.11,905.6905201,12.139108,6,P-GPS,
4200,7/12/2021 19:52,38.1041568,-84.7572432,13.779528,13.779528,893.5514121,907.3309401,14.435696,0,1.113733631,1.728507273,15,5,15.703,907.3309401,13.779528,0.4921268,1.113733631,0,0,-9.395148,85.3,0.5,1,0,0,1024,1024,1629,647,0,0,92,-57,92.7,0,0,98,3.968,3.995,4,3.985,0,0,14.266,84.11,907.3309401,13.779528,6,P-GPS,
4300,7/12/2021 19:52,38.10415687,-84.75724313,15.091864,15.091864,893.5514121,908.6432761,15.748032,0,1.142076808,1.759941001,15,5,15.703,908.6432761,15.091864,0.4921268,1.142076808,0,0,-9.618842,78.4,-0.1,1.1,0,0,1024,1024,1648,628,0,0,95,-60,86.4,0,0,98,3.968,3.995,4,3.985,0,0,14.266,84.11,908.6432761,15.091864,6,P-GPS,
4400,7/12/2021 19:52,38.10415694,-84.75724308,16.4042,16.4042,893.5514121,909.9556121,17.060368,0,1.168612242,1.788277616,15,5,15.703,909.9556121,16.4042,0.4921268,1.168612242,0,0,-9.618842,71.4,-0.9,1.6,0,0,1024,1024,1650,633,0,0,95,-59,79.6,0,0,98,3.968,3.995,4,3.985,0,0,14.266,84.11,909.9556121,16.4042,6,P-GPS,
4500,7/12/2021 19:52,38.10415699,-84.75724303,18.04462,18.04462,893.5514121,911.5960321,18.700788,0,1.191633896,1.813051239,15,5,15.703,911.5960321,18.04462,0.4921268,1.191633896,0,0,-9.842536,64.2,-1.2,2.3,0,0,1024,1024,1648,645,0,0,95,-57,72.7,0,0,98,3.968,3.995,4,3.985,0,0,14.266,84.11,911.5960321,18.04462,6,P-GPS,
4600,7/12/2021 19:52,38.10415702,-84.75724297,19.356956,19.356956,893.5514121,912.9083681,20.013124,0,1.203841902,1.83367788,15,5,15.703,912.9083681,19.356956,0.4921268,1.203841902,0,0,-9.842536,57,-0.9,1,0,0,1024,1024,1648,659,0,0,95,-55,65.6,0,0,98,3.968,3.995,4,3.985,0,0,14.266,84.11,912.9083681,19.356956,6,P-GPS,
4700,7/12/2021 19:52,38.10415704,-84.7572429,20.669292,20.669292,893.5514121,914.2207041,21.653544,0,1.215292034,1.855105046,15,5,15.703,914.2207041,20.669292,0.4921268,1.215292034,0,0,-9.842536,50.2,0,0.8,0,0,1024,1024,1651,668,0,0,95,-54,58.6,0,0,98,3.968,3.995,4,3.985,0,0,14.266,84.11,914.2207041,20.669292,6,P-GPS,
4800,7/12/2021 19:52,38.10415706,-84.75724287,22.309712,22.309712,893.5514121,915.8611241,22.96588,0.223694,1.224750695,1.866489561,15,5,15.703,915.8611241,22.309712,0.4921268,1.224750695,0.223694,0,-10.06623,43.7,1.4,0.8,0,0,1024,1024,1651,665,0,0,95,-54,52,0,0,98,3.968,3.995,4,3.985,0,0,14.266,84.11,915.8611241,22.309712,6,P-GPS,
4900,7/12/2021 19:52,38.10415708,-84.75724284,23.950132,23.950132,893.5514121,917.5015441,24.6063,0,1.235669331,1.879215939,15,5,15.703,917.5015441,23.950132,0.4921268,1.235669331,0,0,-10.06623,37.5,2.5,0.9,0,0,1024,1024,1652,665,0,0,95,-54,45.6,0,0,98,3.968,3.995,4,3.985,0,0,14.266,84.11,917.5015441,23.950132,6,P-GPS,
5000,7/12/2021 19:52,38.10415706,-84.75724289,25.262468,25.262468,893.5514121,918.8138801,26.24672,0,1.225026286,1.896975126,15,5,15.703,918.8138801,25.262468,0.4921268,1.235669331,0,0,-10.289924,31.2,3.2,1,0,0,1024,1024,1651,669,0,0,95,-54,39.3,0,0,98,3.968,3.995,4,3.985,0,0,14.266,84.11,918.8138801,25.262468,6,P-GPS,
5100,7/12/2021 19:52,38.10415701,-84.75724295,26.902888,26.902888,893.5514121,920.4543001,27.559056,0.223694,1.201696233,1.922762529,15,5,15.703,920.4543001,26.902888,0.4921268,1.235669331,0,0.223694,-10.289924,24.8,2,-0.2,0,0,1024,1024,1650,676,0,0,95,-53,33,0,0,98,3.968,3.995,4,3.985,0,0,14.266,84.11,920.4543001,26.902888,6,P-GPS,
5200,7/12/2021 19:52,38.10415695,-84.757243,28.543308,28.543308,893.5514121,922.0947201,29.199476,0.223694,1.177152269,1.949150325,15,5,15.866,922.0947201,28.543308,0.4921268,1.235669331,0,0.223694,-10.289924,18.6,1.9,-0.6,0,0,1024,1024,1652,688,0,0,95,-51,26.9,0,0,98,3.932,3.969,3.977,3.971,0,0,17.524,84.11,922.0947201,28.543308,6,P-GPS,
5300,7/12/2021 19:52,38.10415689,-84.75724315,29.855644,29.855644,893.5514121,923.4070561,30.839896,0.3131716,1.147483633,1.997227754,15,5,15.866,923.4070561,29.855644,0.4921268,1.235669331,0.223694,0.223694,-10.289924,12.6,2.2,-0.5,0,0,1024,1024,1633,741,0,0,92,-43,20.8,0,0,98,3.932,3.969,3.977,3.971,0,0,17.524,84.11,923.4070561,29.855644,6,P-GPS,
5400,7/12/2021 19:52,38.10415685,-84.75724329,31.496064,31.496064,893.5514121,925.0474761,32.152232,0.3131716,1.128743474,2.038346522,15,5,15.866,925.0474761,31.496064,0.4921268,1.235669331,0.223694,0.223694,-10.289924,6.7,2.6,-1.1,0,0,1024,1024,1612,905,0,0,89,-18,15,0,0,98,3.932,3.969,3.977,3.971,0,0,17.524,84.11,925.0474761,31.496064,6,P-GPS,
5500,7/12/2021 19:52,38.10415687,-84.75724338,32.8084,32.8084,893.5514121,926.3598121,33.792652,0.3131716,1.129445574,2.065026313,15,5,15.866,926.3598121,32.8084,0.4921268,1.235669331,0.223694,0.223694,-10.289924,2,3.4,-0.8,0,0,1024,1024,1650,971,0,0,95,-8,10.1,0,0,98,3.932,3.969,3.977,3.971,0,0,17.524,84.11,926.3598121,32.8084,6,P-GPS,
5600,7/12/2021 19:52,38.10415687,-84.75724349,34.44882,34.44882,893.5514121,928.0002321,35.104988,0.3131716,1.125754629,2.09629928,15,5,15.866,928.0002321,34.44882,0.4921268,1.235669331,0.223694,0.223694,-9.842536,0.1,4.3,-1.4,0,0,1024,1024,1661,980,0,0,97,-7,6.4,0,0,98,3.932,3.969,3.977,3.971,0,0,17.524,84.11,928.0002321,34.44882,6,P-GPS,
5700,7/12/2021 19:52,38.10415684,-84.75724356,36.08924,36.1220484,893.5186037,929.6406521,36.745408,0.223694,1.113979694,2.119366866,15,5,15.866,929.6406521,36.08924,0.4921268,1.235669331,0.223694,0,-10.06623,359.6,4.8,-1.4,0,0,1024,1024,1659,1023,0,0,96,0,4.4,0,0,98,3.932,3.969,3.977,3.971,0,0,17.524,84.11,929.6406521,36.08924,6,P-GPS,
5800,7/12/2021 19:52,38.10415677,-84.75724365,37.401576,37.4343844,893.5186037,930.9529881,38.057744,0,1.086647016,2.154803219,15,5,15.866,930.9529881,37.401576,0.4921268,1.235669331,0,0,-10.06623,359.3,4.9,-1.7,0,0,1024,1024,1665,1024,0,0,97,0,3.2,0,0,98,3.932,3.969,3.977,3.971,0,0,17.524,84.11,930.9529881,37.401576,6,P-GPS,
5900,7/12/2021 19:52,38.10415668,-84.75724371,39.041996,39.0748044,893.5186037,932.5934081,39.37008,0,1.052746097,2.192181829,15,5,15.866,932.5934081,39.041996,0.4921268,1.235669331,0,0,-10.06623,359.2,5.2,-1.7,0,0,1024,1024,1680,1024,0,0,99,0,2.5,0,0,98,3.932,3.969,3.977,3.971,0,0,17.524,84.11,932.5934081,39.041996,6,P-GPS,
6000,7/12/2021 19:52,38.10415655,-84.75724376,40.354332,40.3871404,893.5186037,933.9057441,41.0105,0,1.005551213,2.241473169,15,5,15.866,933.9057441,40.354332,0.4921268,1.235669331,0,0,-10.289924,359.1,3.4,-2.5,0,0,1024,1024,1667,1024,0,0,97,0,2,0,0,98,3.932,3.969,3.977,3.971,0,0,17.524,84.11,933.9057441,40.354332,6,P-GPS,
6100,7/12/2021 19:52,38.10415644,-84.75724384,41.994752,42.0275604,893.5186037,935.5461641,42.322836,0,0.963612236,2.28775926,15,5,15.866,935.5461641,41.994752,0.4921268,1.235669331,0,0,-10.513618,359.3,0.9,-2.4,0,0,1024,1024,1641,1024,0,0,93,0,1.7,0,0,98,3.932,3.969,3.977,3.971,0,0,17.524,84.11,935.5461641,41.994752,6,P-GPS,
6200,7/12/2021 19:52,38.10415641,-84.75724395,43.635172,43.6679804,893.5186037,937.1865841,43.963256,0.223694,0.953274309,2.321168053,15,5,15.893,937.1865841,43.635172,0.4921268,1.235669331,0.223694,0,-10.737312,359.2,1.5,-2.2,0,0,1024,1024,1602,1024,0,0,88,0,1.4,0,0,98,3.941,3.981,3.98,3.955,0,0,15.932,84.11,937.1865841,43.635172,6,P-GPS,
6300,7/12/2021 19:52,38.10415648,-84.75724409,44.947508,44.9803164,893.5186037,938.4989201,45.603676,0.223694,0.979229034,2.369442333,15,5,15.893,938.4989201,44.947508,0.4921268,1.235669331,0.223694,0,-10.513618,359.3,3.7,-1.6,0,0,1024,1024,1603,1024,0,0,88,0,1.3,0,0,98,3.941,3.981,3.98,3.955,0,0,15.932,84.11,938.4989201,44.947508,6,P-GPS,
6400,7/12/2021 19:52,38.10415661,-84.75724423,46.587928,46.6207364,893.5186037,940.1393401,46.916012,0.447388,1.032752658,2.433540104,15,5,15.893,940.1393401,46.587928,0.4921268,1.235669331,0.447388,0,-10.289924,359.2,5.9,-1.3,0,0,1024,1024,1643,1024,0,0,94,0,1.1,0,0,98,3.941,3.981,3.98,3.955,0,0,15.932,84.11,940.1393401,46.587928,6,P-GPS,
6500,7/12/2021 19:52,38.10415678,-84.75724435,48.228348,48.2611564,893.5186037,941.7797601,48.556432,0.447388,1.097526282,2.504567009,15,5,15.893,941.7797601,48.228348,0.4921268,1.235669331,0.447388,0,-9.842536,359.2,7.6,-0.9,0,0,1024,1024,1652,1024,0,0,95,0,1,0,0,98,3.941,3.981,3.98,3.955,0,0,15.932,84.11,941.7797601,48.228348,6,P-GPS,
6600,7/12/2021 19:52,38.10415695,-84.75724444,49.540684,49.5734924,893.5186037,943.0920961,49.868768,0.223694,1.16083009,2.570075542,15,5,15.893,943.0920961,49.540684,0.4921268,1.235669331,0.223694,0,-9.842536,359.1,7.9,-1.6,0,0,1024,1024,1638,1024,0,0,93,0,0.9,0,0,98,3.941,3.981,3.98,3.955,0,0,15.932,84.11,943.0920961,49.540684,6,P-GPS,
6700,7/12/2021 19:52,38.10415705,-84.75724451,51.181104,51.2139124,893.5186037,944.7325161,51.181104,0.447388,1.200374054,2.612014519,15,5,15.893,944.7325161,51.181104,0.4921268,1.235669331,0.447388,0,-10.06623,359.2,6.7,-2,0,0,1024,1024,1627,1024,0,0,91,0,0.9,0,0,98,3.941,3.981,3.98,3.955,0,0,15.932,84.11,944.7325161,51.181104,6,P-GPS,
6800,7/12/2021 19:52,38.10415714,-84.7572446,52.49344,52.5262484,893.5186037,946.0448521,52.821524,0.4921268,1.236112244,2.653238274,15,5,15.893,946.0448521,52.49344,0.4921268,1.236112244,0.447388,-0.223694,-10.06623,359.3,7.8,-0.1,0,0,1024,1024,1628,1024,0,0,92,0,0.8,0,0,98,3.941,3.981,3.98,3.955,0,0,15.932,84.11,946.0448521,52.49344,6,P-GPS,
6900,7/12/2021 19:52,38.10415718,-84.75724467,54.13386,54.1666684,893.5186037,947.6852721,54.13386,0.447388,1.255790723,2.679701529,15,5,15.893,947.6852721,54.13386,0.4921268,1.255790723,0.447388,0,-10.06623,359.3,8.8,0,0,0,1024,1024,1612,1024,0,0,89,0,0.8,-0.3,0,98,3.941,3.981,3.98,3.955,0,0,15.932,84.11,947.6852721,54.13386,6,P-GPS,
7000,7/12/2021 19:52,38.10415719,-84.7572447,55.446196,55.4790044,893.5186037,948.9976081,55.77428,0.223694,1.259740854,2.687231057,15,5,15.893,948.9976081,55.446196,0.4921268,1.259740854,0.223694,0,-10.06623,359.3,9,-0.5,0,0,1024,1024,1603,1024,0,0,88,0,0.7,-2.1,0,98,3.941,3.981,3.98,3.955,0,0,15.932,84.11,948.9976081,55.446196,6,P-GPS,
7100,7/12/2021 19:52,38.1041571,-84.75724467,57.086616,57.1194244,893.5186037,950.6380281,57.086616,0,1.226128648,2.720843263,15,5,15.893,950.6380281,57.086616,0.4921268,1.259740854,0,0,-9.842536,359.3,8.7,-0.9,0,0,1024,1024,1587,1029,0,0,85,1,0.7,-3.7,0,98,3.941,3.981,3.98,3.955,0,0,15.932,84.11,950.6380281,57.086616,6,P-GPS,
7200,7/12/2021 19:52,38.104157,-84.75724463,58.398952,58.4317604,893.5186037,951.9503641,58.398952,0,1.186394395,2.761207437,15,5,15.458,951.9503641,58.398952,0.4921268,1.259740854,0,0,-9.618842,359.3,6.9,-2.2,0,0,1024,1024,1583,1041,0,0,85,3,0.7,-5.7,0,98,3.941,3.981,3.98,3.955,0,0,15.932,84.11,951.9503641,58.398952,6,P-GPS,
7300,7/12/2021 19:52,38.10415688,-84.75724454,60.039372,60.0721804,893.5186037,953.5907841,60.039372,0,1.142372084,2.808054552,15,5,15.458,953.5907841,60.039372,0.4921268,1.259740854,0,0,-9.618842,359.2,6.4,-2.1,0,0,1024,1024,1574,1044,0,0,83,3,0.6,-7.9,0,98,3.941,3.981,3.98,3.955,0,0,15.932,84.11,953.5907841,60.039372,6,P-GPS,
7400,7/12/2021 19:52,38.10415682,-84.75724452,61.351708,61.3845164,893.5186037,954.9031201,0,0,1.116919327,2.833648385,15,5,15.458,954.9031201,61.351708,0.4921268,1.259740854,0,0,-9.395148,359.2,8.3,-1.9,0,0,1024,1024,1574,1043,0,0,83,3,0.6,-10.2,0,98,3.941,3.981,3.98,3.955,0,0,15.932,84.11,954.9031201,61.351708,6,P-GPS,
7500,7/12/2021 19:52,38.10415675,-84.75724456,62.664044,62.6968524,893.5186037,956.2154561,0,0,1.096227069,2.858513871,15,5,15.458,956.2154561,62.664044,0.4921268,1.259740854,0,0,-8.94776,359.3,8.6,-1.6,0,0,1024,1024,1571,1042,0,0,83,3,0.6,-12.6,0,98,3.941,3.981,3.98,3.955,0,0,15.932,84.11,956.2154561,62.664044,6,P-GPS,
7600,7/12/2021 19:52,38.10415668,-84.75724465,63.97638,64.0091884,893.5186037,957.5277921,0,0.223694,1.07486552,2.897093269,15,5,15.458,957.5277921,63.97638,0.4921268,1.259740854,0,-0.223694,-8.724066,359.3,8.3,-0.5,0,0,1024,1024,1563,1052,0,0,82,4,0.6,-15,0,98,3.941,3.981,3.98,3.955,0,0,15.932,84.11,957.5277921,63.97638,6,P-GPS,
7700,7/12/2021 19:52,38.10415656,-84.75724483,65.288716,65.3215244,893.5186037,958.8401281,0,0.223694,1.042647671,2.965843271,15,5,15.458,958.8401281,65.288716,0.4921268,1.259740854,0,-0.223694,-8.500372,359.3,7.7,0.8,0,0,1024,1024,1522,1121,0,0,75,15,0.5,-17.4,0,98,3.941,3.981,3.98,3.955,0,0,15.932,84.11,958.8401281,65.288716,6,P-GPS,
7800,7/12/2021 19:52,38.10415644,-84.75724502,66.601052,66.6338604,893.5186037,960.1524641,0,0.223694,1.017696883,3.034297997,15,5,15.458,960.1524641,66.601052,0.4921268,1.259740854,0,-0.223694,-8.276678,359.3,7.4,1.9,0,0,1024,1024,1485,1183,0,0,70,24,0.5,-17.4,0,98,3.941,3.981,3.98,3.955,0,0,15.932,84.11,960.1524641,66.601052,6,P-GPS,
7900,7/12/2021 19:52,38.10415631,-84.7572452,67.913388,67.9461964,893.5186037,961.4648001,0,0.223694,0.993727066,3.103825559,15,5,15.458,961.4648001,67.913388,0.4921268,1.259740854,0,-0.223694,-8.052984,359.8,7.4,2.2,0,0,1024,1024,1480,1200,0,0,69,27,1.6,-22.2,0,98,3.941,3.981,3.98,3.955,0,0,15.932,84.11,961.4648001,67.913388,6,P-GPS,
8000,7/12/2021 19:52,38.1041562,-84.75724537,68.89764,68.9304484,893.5186037,962.4490521,0,0.223694,0.974133889,3.168297345,15,5,15.458,962.4490521,68.89764,0.4921268,1.259740854,0,-0.223694,-7.605596,1.1,6.9,3.2,0,0,1024,1024,1481,1199,0,0,69,27,1.6,-22.2,0,98,3.941,3.981,3.98,3.955,0,0,15.932,84.11,962.4490521,68.89764,6,P-GPS,
8100,7/12/2021 19:52,38.10415606,-84.75724554,70.209976,70.2427844,893.5186037,963.7613881,0,0.223694,0.953064335,3.23967202,15,5,15.458,963.7613881,70.209976,0.4921268,1.259740854,0,-0.223694,-7.158208,3.2,6.5,3.5,0,0,1024,1024,1470,1232,0,0,68,32,3.8,-27,0,98,3.941,3.981,3.98,3.955,0,0,15.932,84.11,963.7613881,70.209976,6,P-GPS,
8200,7/12/2021 19:52,38.10415594,-84.75724566,71.194228,71.2270364,893.5186037,964.7456401,0,0.223694,0.932739531,3.294291444,15,5,15.757,964.7456401,71.194228,0.4921268,1.259740854,0,-0.223694,-6.71082,5.6,5.9,2.9,0,0,1024,1024,1476,1219,0,0,68,30,5.1,-29,0,98,3.92,3.965,3.969,3.958,0,0,16.156,84.11,964.7456401,71.194228,6,P-GPS,
8300,7/12/2021 19:52,38.10415578,-84.75724574,72.17848,72.2112884,893.5186037,965.7298921,0,0.223694,0.89883205,3.356004044,15,5,15.757,965.7298921,72.17848,0.4921268,1.259740854,-0.223694,0,-6.71082,8.4,5.2,2.6,0,0,1024,1024,1482,1202,0,0,69,27,6.7,-29.4,0,98,3.92,3.965,3.969,3.958,0,0,16.156,84.11,965.7298921,72.17848,6,P-GPS,
8400,7/12/2021 19:52,38.10415565,-84.7572458,73.162732,73.1955404,893.5186037,966.7141441,0,0.3131716,0.872942941,3.40570877,15,5,15.757,966.7141441,73.162732,0.4921268,1.259740854,-0.223694,-0.223694,-6.487126,11.2,4.9,2.6,0,0,1024,1024,1487,1173,0,0,70,23,6.7,-29.4,0,98,3.92,3.965,3.969,3.958,0,0,16.156,84.11,966.7141441,73.162732,6,P-GPS,
8500,7/12/2021 19:52,38.10415555,-84.75724581,74.146984,74.1797924,893.5186037,967.6983961,0,0.3131716,0.844881917,3.445472551,15,5,15.757,967.6983961,74.146984,0.4921268,1.259740854,-0.223694,-0.223694,-6.263432,13.6,4.6,2.9,0,0,1024,1024,1506,1118,0,0,73,14,10.5,-29.4,0,98,3.92,3.965,3.969,3.958,0,0,16.156,84.11,967.6983961,74.146984,6,P-GPS,
8600,7/12/2021 19:52,38.10415545,-84.75724583,75.131236,75.1640444,893.5186037,968.6826481,0,0.3131716,0.82274937,3.479593287,15,5,15.757,968.6826481,75.131236,0.4921268,1.259740854,-0.223694,-0.223694,-6.263432,15.8,4.2,3.1,0,0,1024,1024,1512,1102,0,0,74,12,12,-29.4,0,98,3.92,3.965,3.969,3.958,0,0,16.156,84.11,968.6826481,75.131236,6,P-GPS,
8700,7/12/2021 19:52,38.10415533,-84.75724592,76.115488,76.1482964,893.5186037,969.6669001,0,0.3131716,0.809022336,3.53244762,15,5,15.757,969.6669001,76.115488,0.4921268,1.259740854,-0.223694,-0.223694,-6.487126,17.2,3.5,3.3,0,0,1024,1024,1532,1056,0,0,77,5,13.3,-29.4,0,98,3.92,3.965,3.969,3.958,0,0,16.156,84.11,969.6669001,76.115488,6,P-GPS,
8800,7/12/2021 19:52,38.10415523,-84.75724599,77.09974,77.1325484,893.5186037,970.6511521,0,0.223694,0.798225091,3.574114288,15,5,15.757,970.6511521,77.09974,0.4921268,1.259740854,0,-0.223694,-6.934514,17.6,3,3.5,0,0,1024,1024,1534,1031,0,0,77,1,14.1,-29.4,0,98,3.92,3.965,3.969,3.958,0,0,16.156,84.11,970.6511521,77.09974,6,P-GPS,
8900,7/12/2021 19:52,38.10415519,-84.75724601,78.083992,78.1168004,893.5186037,971.6354041,0,0.223694,0.79451118,3.590551296,15,5,15.757,971.6354041,78.083992,0.4921268,1.259740854,0,-0.223694,-6.934514,18.1,3.4,4.1,0,0,1024,1024,1543,1024,0,0,79,0,14.6,-29.4,0,98,3.92,3.965,3.969,3.958,0,0,16.156,84.11,971.6354041,78.083992,6,P-GPS,
9000,7/12/2021 19:52,38.10415519,-84.75724603,79.396328,79.4291364,893.5186037,972.9477401,0,0.223694,0.799055144,3.595538173,15,5,15.757,972.9477401,79.396328,0.4921268,1.259740854,0,-0.223694,-7.381902,17.9,3.3,4.9,0,0,1024,1024,1504,1024,0,0,73,0,14.9,-29.4,0,98,3.92,3.965,3.969,3.958,0,0,16.156,84.11,972.9477401,79.396328,6,P-GPS,
9100,7/12/2021 19:52,38.10415524,-84.75724603,80.708664,80.7414724,893.5186037,974.2600761,0,0,0.812260525,3.61486232,15,5,15.757,974.2600761,80.708664,0.4921268,1.259740854,0,0,-7.605596,17.8,3,5.7,0,0,1024,1024,1480,1024,0,0,69,0,14.9,-29.4,0,98,3.92,3.965,3.969,3.958,0,0,16.156,84.11,974.2600761,80.708664,6,P-GPS,
9200,7/12/2021 19:52,38.10415535,-84.75724596,81.692916,81.7257244,893.5186037,975.2443281,0,0.223694,0.822769055,3.65895681,15,5,15.92,975.2443281,81.692916,0.4921268,1.259740854,0.223694,0,-7.82929,17.9,4.7,5.7,0,0,1024,1024,1479,1024,0,0,69,0,15.2,-29.4,0,98,3.964,4.007,4.009,3.991,0,0,12.53,84.11,975.2443281,81.692916,6,P-GPS,
9300,7/12/2021 19:52,38.1041555,-84.75724587,83.005252,83.0380604,893.5186037,976.5566641,0,0.223694,0.842467219,3.718175972,15,5,15.92,976.5566641,83.005252,0.4921268,1.259740854,0.223694,0,-7.381902,18,6.8,6.6,0,0,1024,1024,1437,1024,0,0,63,0,15.3,-29.4,0,98,3.964,4.007,4.009,3.991,0,0,12.53,84.11,976.5566641,83.005252,6,P-GPS,
9400,7/12/2021 19:52,38.10415564,-84.75724571,84.317588,84.3503964,893.5186037,977.8690001,0,0.223694,0.852106326,3.786647103,15,5,15.92,977.8690001,84.317588,0.4921268,1.259740854,0.223694,0.223694,-7.158208,18,5.7,5.6,0,0,1024,1024,1437,1024,0,0,63,0,15.3,-29.4,0,98,3.964,4.007,4.009,3.991,0,0,12.53,84.11,977.8690001,84.317588,6,P-GPS,
9500,7/12/2021 19:52,38.10415578,-84.75724548,85.30184,85.3346484,893.5186037,978.8532521,0,0.3131716,0.855921943,3.870964691,15,5,15.92,978.8532521,85.30184,0.4921268,1.259740854,0.223694,0.223694,-6.71082,18,6.7,4.4,0,0,1024,1024,1514,1024,0,0,74,0,15.5,-29.4,0,98,3.964,4.007,4.009,3.991,0,0,12.53,84.11,978.8532521,85.30184,6,P-GPS,
9600,7/12/2021 19:52,38.10415594,-84.75724519,86.286092,86.3189004,893.5186037,979.8375041,0,0.4921268,0.867811708,3.974048684,15,5,15.92,979.8375041,86.286092,0.4921268,1.259740854,0.223694,0.447388,-6.487126,17.9,7.7,2.5,0,0,1024,1024,1505,1024,0,0,73,0,15.6,-29.4,0,98,3.964,4.007,4.009,3.991,0,0,12.53,84.11,979.8375041,86.286092,6,P-GPS,
9700,7/12/2021 19:52,38.10415612,-84.75724486,87.270344,87.3031524,893.5186037,980.8217561,0,0.4921268,0.892893729,4.089173359,15,5,15.92,980.8217561,87.270344,0.4921268,1.259740854,0.223694,0.447388,-6.71082,17.9,6.7,1.7,0,0,1024,1024,1506,1024,0,0,73,0,15.7,-29.4,0,98,3.964,4.007,4.009,3.991,0,0,12.53,84.11,980.8217561,87.270344,6,P-GPS,
9800,7/12/2021 19:52,38.1041563,-84.75724454,88.254596,88.2874044,893.5186037,981.8060081,0,0.4921268,0.932365515,4.202263914,15,5,15.92,981.8060081,88.254596,0.4921268,1.259740854,0.223694,0.447388,-6.71082,18,7.5,2.2,0,0,1024,1024,1507,1024,0,0,73,0,15.7,-29.4,0,98,3.964,4.007,4.009,3.991,0,0,12.53,84.11,981.8060081,88.254596,6,P-GPS,
9900,7/12/2021 19:52,38.10415642,-84.75724425,89.238848,89.2716564,893.5186037,982.7902601,0,0.4921268,0.96362864,4.29563662,15,5,15.92,982.7902601,89.238848,0.4921268,1.259740854,0.223694,0.447388,-6.71082,18,8.8,1.3,0,0,1024,1024,1504,1024,0,0,73,0,15.9,-29.4,0,98,3.964,4.007,4.009,3.991,0,0,12.53,84.11,982.7902601,89.238848,6,P-GPS,
10000,7/12/2021 19:52,38.10415651,-84.75724394,90.2231,90.2559084,893.5186037,983.7745121,0,0.447388,0.990846488,4.389862345,15,5,15.92,983.7745121,90.2231,0.4921268,1.259740854,0,0.447388,-6.487126,17.9,8.8,0.2,0,0,1024,1024,1511,1024,0,0,74,0,16.1,-29.4,0,98,3.964,4.007,4.009,3.991,0,0,12.53,84.11,983.7745121,90.2231,6,P-GPS,
10200,7/12/2021 19:52,38.10415661,-84.75724342,92.191604,92.191604,893.5514121,985.7430161,0,0.223694,1.033536778,4.544258676,15,5,15.757,985.7430161,92.191604,0.4921268,1.259740854,0,0.223694,-6.71082,17.7,6.3,-0.1,0,0,1024,1024,1514,1024,0,0,74,0,16.1,-29.4,0,98,3.964,4.007,4.009,3.991,0,0,14.884,84.11,985.7430161,92.191604,6,P-GPS,
10300,7/12/2021 19:52,38.10415665,-84.75724329,93.50394,93.50394,893.5514121,987.0553521,0,0,1.053106989,4.582906971,15,5,15.757,987.0553521,93.50394,0.4921268,1.259740854,0,0,-6.934514,17.8,6.4,0.5,0,0,1024,1024,1517,1024,0,0,75,0,16.2,-29.4,0,98,3.964,4.007,4.009,3.991,0,0,14.884,84.11,987.0553521,93.50394,6,P-GPS,
10400,7/12/2021 19:52,38.1041567,-84.75724321,94.488192,94.488192,893.5514121,988.0396041,0,0,1.076994785,4.614599885,15,5,15.757,988.0396041,94.488192,0.4921268,1.259740854,0,0,-7.158208,17.9,7.3,2.1,0,0,1024,1024,1490,1024,0,0,71,0,16.3,-29.4,0,98,3.964,4.007,4.009,3.991,0,0,14.884,84.11,988.0396041,94.488192,6,P-GPS,
10500,7/12/2021 19:52,38.10415674,-84.75724311,95.472444,95.472444,893.5514121,989.0238561,0,0,1.097145704,4.646030332,15,5,15.757,989.0238561,95.472444,0.4921268,1.259740854,0,0,-7.158208,17.9,7.5,1.6,0,0,1024,1024,1475,1024,0,0,68,0,16.3,-29.4,0,98,3.964,4.007,4.009,3.991,0,0,14.884,84.11,989.0238561,95.472444,6,P-GPS,
10600,7/12/2021 19:52,38.10415674,-84.75724305,96.78478,96.78478,893.5514121,990.3361921,0,0,1.10240161,4.665485714,15,5,15.757,990.3361921,96.78478,0.4921268,1.259740854,0,0,-7.158208,18,7.5,1.6,0,0,1024,1024,1525,913,0,0,76,-17,16.4,-29.4,0,98,3.964,4.007,4.009,3.991,0,0,14.884,84.11,990.3361921,96.78478,6,P-GPS,
10700,7/12/2021 19:52,38.10415676,-84.757243,97.769032,97.769032,893.5514121,991.3204441,0,0,1.109101085,4.679265242,15,5,15.757,991.3204441,97.769032,0.4921268,1.259740854,0,0,-6.934514,18,8,2.3,0,0,1024,1024,1514,838,0,0,74,-28,15.8,-29.4,0,98,3.964,4.007,4.009,3.991,0,0,14.884,84.11,991.3204441,97.769032,6,P-GPS,
10800,7/12/2021 19:52,38.10415675,-84.75724297,98.753284,98.753284,893.5514121,992.3046961,0,0,1.107778907,4.686909599,15,5,15.757,992.3046961,98.753284,0.4921268,1.259740854,0,0,-6.934514,17,6.7,1.6,0,0,1024,1024,1455,781,0,0,65,-37,14.7,-29.4,0,98,3.964,4.007,4.009,3.991,0,0,14.884,84.11,992.3046961,98.753284,6,P-GPS,
10900,7/12/2021 19:52,38.10415668,-84.75724295,100.06562,100.06562,893.5514121,993.6170321,0,0,1.086706072,4.711515899,15,5,15.757,993.6170321,100.06562,0.4921268,1.259740854,0,0,-7.158208,14.5,6.7,1.8,0,0,1024,1024,1398,749,0,0,57,-42,13.2,-29.4,0,98,3.964,4.007,4.009,3.991,0,0,14.884,84.11,993.6170321,100.06562,6,P-GPS,
11000,7/12/2021 19:52,38.10415665,-84.75724296,101.049872,101.049872,893.5514121,994.6012841,0,0,1.073933761,4.724343983,15,5,15.757,994.6012841,101.049872,0.4921268,1.259740854,0,0,-6.71082,11,8.2,2.9,0,0,1077,1024,1372,747,8,0,53,-42,11.2,-29.4,0,98,3.964,4.007,4.009,3.991,0,0,14.884,84.11,994.6012841,101.049872,6,P-GPS,
11100,7/12/2021 19:52,38.10415663,-84.75724298,102.034124,102.034124,893.5514121,995.5855361,0,0,1.06654531,4.732841359,15,5,15.757,995.5855361,102.034124,0.4921268,1.259740854,0,0,-6.039738,6.8,8.7,2.7,0,0,1122,1024,1344,779,15,0,48,-37,8.7,-29.4,0,98,3.964,4.007,4.009,3.991,0,0,14.884,84.11,995.5855361,102.034124,6,P-GPS,
11200,7/12/2021 19:52,38.10415659,-84.75724297,103.018376,103.018376,893.5514121,996.5697881,0,0,1.051384548,4.750754745,15,5,15.703,996.5697881,103.018376,0.4921268,1.259740854,0,0,-5.59235,2.3,6.3,2,0,0,1137,1024,1267,892,17,0,37,-20,5.9,-29.4,0,98,3.975,3.988,3.953,3.913,0,0,14.884,84.11,996.5697881,103.018376,6,P-GPS,
11300,7/12/2021 19:52,38.10415657,-84.75724291,103.674544,103.674544,893.5514121,997.2259561,0,0,1.048946884,4.768208814,15,5,15.703,997.2259561,103.674544,0.4921268,1.259740854,0,0,-4.921268,358.9,3.7,1.1,0,0,1160,1024,1161,1019,21,0,21,-1,3.5,-29.4,0,98,3.975,3.988,3.953,3.913,0,0,14.884,84.11,997.2259561,103.674544,6,P-GPS,
11400,7/12/2021 19:52,38.10415662,-84.75724283,104.330712,104.330712,893.5514121,997.8821241,0,0.223694,1.073664733,4.797375482,15,5,15.703,997.8821241,104.330712,0.4921268,1.259740854,0.223694,0,-3.802798,357.3,3.6,0.7,0,0,1180,1024,1074,1024,24,0,8,0,1.9,-29.4,0,98,3.975,3.988,3.953,3.913,0,0,14.884,84.11,997.8821241,104.330712,6,P-GPS,
11500,7/12/2021 19:52,38.10415675,-84.75724279,104.98688,104.98688,893.5514121,998.5382921,0,0.447388,1.1236877,4.847473908,15,5,15.703,998.5382921,104.98688,0.4921268,1.259740854,0.447388,0,-2.684328,357.1,2.9,0.8,0,0,1204,1024,1028,1024,27,0,1,0,0.9,-29.4,0,98,3.975,3.988,3.953,3.913,0,0,14.884,84.11,998.5382921,104.98688,6,P-GPS,
11600,7/12/2021 19:52,38.10415694,-84.75724276,105.314964,105.314964,893.5514121,998.8663761,0,0.447388,1.191499382,4.916076273,15,5,15.703,998.8663761,105.314964,0.4921268,1.259740854,0.447388,0,-1.565858,357.2,1.4,0.5,0,0,1228,1024,1024,1022,31,0,0,0,0.3,-29.4,0,98,3.975,3.988,3.953,3.913,0,0,14.884,84.11,998.8663761,105.314964,6,P-GPS,
11700,7/12/2021 19:52,38.1041572,-84.75724276,105.314964,105.314964,893.5514121,998.8663761,0,0.671082,1.28222117,5.009941105,15,5,15.703,998.8663761,105.314964,0.671082,1.28222117,0.671082,0,-0.671082,357.2,-0.4,0.1,0,0,1232,1024,1024,1022,32,0,0,0,0,-29.4,0,98,3.975,3.988,3.953,3.913,0,0,14.884,84.11,998.8663761,105.314964,6,P-GPS,
11800,7/12/2021 19:52,38.10415756,-84.75724278,105.314964,105.314964,893.5514121,998.8663761,0,0.894776,1.408156213,5.141141897,15,5,15.703,998.8663761,105.314964,0.894776,1.408156213,0.894776,0,-0.223694,357.2,-2.1,-0.1,0,0,1228,1024,1024,1022,31,0,0,0,359.7,-29.4,0,98,3.975,3.988,3.953,3.913,0,0,14.884,84.11,998.8663761,105.314964,6,P-GPS,
11900,7/12/2021 19:52,38.10415807,-84.75724284,105.314964,105.314964,893.5514121,998.8663761,0,1.1408394,1.588602413,5.329363688,15,5,15.703,998.8663761,105.314964,1.1408394,1.588602413,1.11847,-0.223694,0,357.1,-2.8,-0.1,0,0,1231,1024,1024,965,31,0,0,-9,359.5,-29.4,0,98,3.975,3.988,3.953,3.913,0,0,14.884,84.11,998.8663761,105.314964,6,P-GPS,
12000,7/12/2021 19:52,38.10415875,-84.75724297,105.314964,105.314964,893.5514121,998.8663761,0,1.6329662,1.825341266,5.57844506,15,5,15.703,998.8663761,105.314964,1.6329662,1.825341266,1.565858,-0.447388,0.223694,357.1,-3.1,0,0,0,1233,1024,1024,939,32,0,0,-13,359.3,-29.4,0,98,3.975,3.988,3.953,3.913,0,0,14.884,84.11,998.8663761,105.314964,6,P-GPS,
12100,7/12/2021 19:52,38.10415958,-84.75724318,105.314964,105.314964,893.5514121,998.8663761,0,1.901399,2.121000724,5.889370267,15,5,15.703,998.8663761,105.314964,1.901399,2.121000724,1.789552,-0.671082,0,356.7,-2.7,0,0,0,1231,1024,1024,928,31,0,0,-15,358.8,-29.4,0,98,3.975,3.988,3.953,3.913,0,0,14.884,84.11,998.8663761,105.314964,6,P-GPS,
12200,7/12/2021 19:52,38.10416059,-84.75724345,105.314964,105.314964,893.5514121,998.8663761,0,2.4158952,2.480180526,6.263779728,15,5,16.22,998.8663761,105.314964,2.4158952,2.480180526,2.23694,-0.894776,0,356,-1.9,0.7,0,0,1231,1024,1024,882,31,0,0,-22,358.2,-29.4,0,98,3.938,4,4.044,4.044,0,0,11.452,84.11,998.8663761,105.314964,6,P-GPS,
12300,7/12/2021 19:52,38.10416172,-84.75724372,105.314964,105.3477724,893.5186037,998.8663761,0,2.6172198,2.890196943,6.683825673,15,5,16.22,998.8663761,105.314964,2.6172198,2.890196943,2.460634,-0.894776,0,354.9,-1.1,1.3,0,0,1231,1024,1025,876,31,0,0,-22,357.2,-29.4,0,98,3.938,4,4.044,4.044,0,0,11.452,84.11,998.8663761,105.314964,6,P-GPS,
12400,7/12/2021 19:52,38.10416297,-84.75724403,105.314964,105.3477724,893.5186037,998.8663761,0,2.8185444,3.34790037,7.150164271,15,5,16.22,998.8663761,105.314964,2.8185444,3.34790037,2.684328,-0.894776,0,353.5,-0.1,1.6,0,0,1231,1024,1027,857,31,0,0,-25,356.1,-29.4,0,98,3.938,4,4.044,4.044,0,0,11.452,84.11,998.8663761,105.314964,6,P-GPS,
12500,7/12/2021 19:52,38.10416432,-84.75724433,105.314964,105.3477724,893.5186037,998.8663761,0,3.0422384,3.841338706,7.649114418,15,5,16.22,998.8663761,105.314964,3.0422384,3.841338706,2.908022,-0.894776,0,352,0.5,1.3,0,0,1231,1024,1027,848,31,0,0,-27,354.7,-29.4,0,98,3.938,4,4.044,4.044,0,0,11.452,84.11,998.8663761,105.314964,6,P-GPS,
12600,7/12/2021 19:52,38.10416575,-84.75724466,105.643048,105.6758564,893.5186037,999.1944601,0,3.2659324,4.367322974,8.180052755,15,5,16.22,999.1944601,105.643048,3.2659324,4.367322974,3.131716,-0.894776,0,350.1,1,1.2,0,0,1232,1024,1026,841,32,0,0,-28,353.1,-29.4,0,98,3.938,4,4.044,4.044,0,0,11.452,84.11,999.1944601,105.643048,6,P-GPS,
12700,7/12/2021 19:52,38.10416724,-84.75724498,105.643048,105.6758564,893.5186037,999.1944601,0,3.467257,4.916010656,8.731922852,15,5,16.22,999.1944601,105.643048,3.467257,4.916010656,3.35541,-0.894776,0,348,1.4,1.5,0,0,1233,1024,1026,841,32,0,0,-28,351.4,-29.4,0,98,3.938,4,4.044,4.044,0,0,11.452,84.11,999.1944601,105.643048,6,P-GPS,
12800,7/12/2021 19:52,38.10416882,-84.75724525,105.643048,105.7086648,893.4857953,999.1944601,0,3.690951,5.495341383,9.312565915,15,5,16.22,999.1944601,105.643048,3.690951,5.495341383,3.579104,-0.894776,0,345.7,1.7,0.7,0,0,1235,1024,1025,841,32,0,0,-28,349.5,-29.4,0,98,3.938,4,4.044,4.044,0,0,11.452,84.11,999.1944601,105.643048,6,P-GPS,
12900,7/12/2021 19:52,38.10417041,-84.7572455,105.971132,106.0695572,893.4529869,999.5225441,0,3.8699062,6.079265286,9.897211603,15,5,16.22,999.5225441,105.971132,3.8699062,6.079265286,3.802798,-0.671082,-0.223694,343.4,2.1,-0.2,0,0,1238,1024,1024,841,32,0,0,-28,347.5,-29.4,0,98,3.938,4,4.044,4.044,0,0,11.452,84.11,999.5225441,105.971132,6,P-GPS,
13000,7/12/2021 19:52,38.10417208,-84.75724572,105.971132,106.0695572,893.4529869,999.5225441,0,3.8699062,6.692880792,10.51105677,15,5,16.22,999.5225441,105.971132,3.8699062,6.692880792,3.802798,-0.671082,0,341.1,2.3,-0.7,0,0,1239,1024,1025,852,33,0,0,-26,345.4,-29.4,0,98,3.938,4,4.044,4.044,0,0,11.452,84.11,999.5225441,105.971132,6,P-GPS,
13100,7/12/2021 19:52,38.10417385,-84.75724604,105.971132,106.1023656,893.4201785,999.5225441,0,4.1159696,7.343208896,11.16250036,15,5,16.22,999.5225441,105.971132,4.1159696,7.343208896,4.026492,-0.894776,0,338.7,2.5,-0.9,0,0,1239,1024,1024,921,33,0,0,-16,343.3,-29.4,0,98,3.938,4,4.044,4.044,0,0,11.452,84.11,999.5225441,105.971132,6,P-GPS,
13200,7/12/2021 19:52,38.10417571,-84.7572464,105.971132,106.135174,893.3873701,999.5225441,0,4.1159696,8.027756162,11.84835996,15,5,15.947,999.5225441,105.971132,4.1159696,8.027756162,4.026492,-0.894776,0,336.6,2.7,-1.3,0,0,1239,1024,1024,982,33,0,0,-6,341.4,-29.4,0,98,3.98,4.01,4.017,4.014,0,0,11.124,84.11,999.5225441,105.971132,6,P-GPS,
13300,7/12/2021 19:52,38.10417766,-84.75724676,105.971132,106.1679824,893.3545617,999.5225441,0,4.3396636,8.746194506,12.56784817,15,5,15.947,999.5225441,105.971132,4.3396636,8.746194506,4.250186,-0.894776,0,335.1,2.7,-1.7,0,0,1237,1024,1025,1024,32,0,0,0,340.2,-29.4,0,98,3.98,4.01,4.017,4.014,0,0,11.124,84.11,999.5225441,105.971132,6,P-GPS,
13400,7/12/2021 19:52,38.1041797,-84.75724723,105.971132,106.2007908,893.3217533,999.5225441,0,4.3396636,9.498983244,13.32313035,15,5,15.947,999.5225441,105.971132,4.3396636,9.498983244,4.250186,-0.894776,0,334.7,3,-2.5,0,0,1235,1024,1025,1024,32,0,0,0,339.4,-29.4,0,98,3.98,4.01,4.017,4.014,0,0,11.124,84.11,999.5225441,105.971132,6,P-GPS,
13500,7/12/2021 19:52,38.10418175,-84.75724776,105.971132,106.2335992,893.2889449,999.5225441,0,4.6080964,10.25895702,14.08648339,15,5,15.947,999.5225441,105.971132,4.6080964,10.25895702,4.47388,-1.11847,0,334.8,3.2,-2.6,0,0,1234,1024,1028,1024,32,0,1,0,338.9,-29.4,0,98,3.98,4.01,4.017,4.014,0,0,11.124,84.11,999.5225441,105.971132,6,P-GPS,
13600,7/12/2021 19:52,38.10418381,-84.75724831,105.971132,106.2664076,893.2561365,999.5225441,0,4.6080964,11.02270376,14.85390467,15,5,15.947,999.5225441,105.971132,4.6080964,11.02270376,4.47388,-1.11847,0,334.8,3.6,-2.6,0,0,1231,1024,1028,1024,31,0,1,0,338.5,-29.4,0,98,3.98,4.01,4.017,4.014,0,0,11.124,84.11,999.5225441,105.971132,6,P-GPS,
13700,7/12/2021 19:52,38.10418598,-84.75724905,105.971132,106.299216,893.2233281,999.5225441,0,4.6752046,11.83576153,15.67490208,15,5,15.947,999.5225441,105.971132,4.6752046,11.83576153,4.47388,-1.342164,0,334.8,3.8,-2.6,0,0,1223,1024,1028,1024,30,0,1,0,338.2,-29.4,0,98,3.98,4.01,4.017,4.014,0,0,11.124,84.11,999.5225441,105.971132,6,P-GPS,
13800,7/12/2021 19:52,38.1041881,-84.75724974,105.971132,106.3320244,893.1905197,999.5225441,0,4.8765292,12.62736261,16.47227743,15,5,15.947,999.5225441,105.971132,4.8765292,12.62736261,4.697574,-1.342164,0.223694,334.8,3.9,-2.5,0,0,1227,1024,1028,1024,31,0,1,0,338,-29.4,0,98,3.98,4.01,4.017,4.014,0,0,11.124,84.11,999.5225441,105.971132,6,P-GPS,
13900,7/12/2021 19:52,38.10419043,-84.75725053,105.643048,106.0367488,893.1577113,999.1944601,0,4.8765292,13.49973796,17.35137851,15,5,15.947,999.5225441,105.971132,4.8765292,13.49973796,4.697574,-1.342164,0.223694,334.8,4,-2.6,0,0,1233,1024,1030,1024,32,0,1,0,337.9,-29.4,0,98,3.98,4.01,4.017,4.014,0,0,11.124,84.11,999.1944601,105.643048,6,P-GPS,
14000,7/12/2021 19:52,38.1041928,-84.75725138,105.643048,106.0695572,893.1249029,999.1944601,0,4.9436374,14.39337316,18.25236279,15,5,15.947,999.5225441,105.971132,4.9436374,14.39337316,4.697574,-1.565858,0.223694,334.8,4.5,-2.6,0,0,1243,1024,1026,1024,33,0,0,0,337.8,-29.4,0,98,3.98,4.01,4.017,4.014,0,0,11.124,84.11,999.1944601,105.643048,6,P-GPS,
14100,7/12/2021 19:52,38.10419513,-84.75725221,105.643048,106.1023656,893.0920945,999.1944601,0,5.1673314,15.27024327,19.13579458,15,5,15.947,999.5225441,105.971132,5.1673314,15.27024327,4.921268,-1.565858,0.223694,334.8,4.9,-2.6,0,0,1258,1024,1026,1024,35,0,0,0,337.6,-29.4,0,98,3.98,4.01,4.017,4.014,0,0,11.124,84.11,999.1944601,105.643048,6,P-GPS,
14200,7/12/2021 19:52,38.10419741,-84.75725306,105.643048,106.135174,893.0592861,999.1944601,0,5.1673314,16.12992178,20.00193634,15,5,15.947,999.5225441,105.971132,5.1673314,16.12992178,4.921268,-1.565858,0.223694,334.7,5,-2.6,0,0,1263,1024,1024,1024,36,0,0,0,337.4,-29.4,0,98,3.98,4.01,4.017,4.014,0,0,11.124,84.11,999.1944601,105.643048,6,P-GPS,
14400,7/12/2021 19:52,38.10420209,-84.75725487,105.643048,106.2335992,892.9608609,999.1944601,0,5.1673314,17.90114887,21.78697576,15,5,15.947,999.5225441,105.971132,5.1673314,17.90114887,4.921268,-1.565858,0,334.8,4.9,-1.9,0,0,1270,1024,1024,1024,37,0,0,0,337.3,-29.4,0,98,3.98,4.01,4.017,4.014,0,0,11.124,84.11,999.1944601,105.643048,6,P-GPS,
14500,7/12/2021 19:52,38.10420458,-84.75725588,105.643048,106.2664076,892.9280525,999.1944601,0,5.1673314,18.84599798,22.7397317,15,5,15.947,999.5225441,105.971132,5.1673314,18.84599798,4.921268,-1.565858,0,334.7,4.6,-2.3,0,0,1274,1024,1024,1024,38,0,0,0,337.2,-29.4,0,98,3.98,4.01,4.017,4.014,0,0,11.124,84.11,999.1944601,105.643048,6,P-GPS,
14600,7/12/2021 19:52,38.1042069,-84.75725682,105.643048,106.299216,892.8952441,999.1944601,0,5.2344396,19.72959381,23.63021729,15,5,15.947,999.5225441,105.971132,5.2344396,19.72959381,4.921268,-1.789552,0,334.5,4.6,-2.2,0,0,1279,1024,1024,1024,39,0,0,0,337.1,-29.4,0,98,3.98,4.01,4.017,4.014,0,0,11.124,84.11,999.1944601,105.643048,6,P-GPS,
14700,7/12/2021 19:52,38.10420943,-84.75725781,105.643048,106.3320244,892.8624357,999.1944601,0,5.2344396,20.687271,24.59330787,15,5,15.947,999.5225441,105.971132,5.2344396,20.687271,4.921268,-1.789552,0.223694,334.4,4.2,-2.3,0,0,1286,1024,1026,1024,40,0,0,0,337,-29.4,0,98,3.98,4.01,4.017,4.014,0,0,11.124,84.11,999.1944601,105.643048,6,P-GPS,
14800,7/12/2021 19:52,38.10421177,-84.75725874,105.643048,106.3976412,892.7968189,999.1944601,0,5.1673314,21.57647707,25.48750082,15,5,15.947,999.5225441,105.971132,5.2344396,21.57647707,4.921268,-1.565858,0.223694,334.4,3,-2.2,0,0,1281,1024,1024,1024,39,0,0,0,336.9,-29.4,0,98,3.98,4.01,4.017,4.014,0,0,11.124,84.11,999.1944601,105.643048,6,P-GPS,
14900,7/12/2021 19:52,38.10421434,-84.75725974,105.643048,106.4304496,892.7640105,999.1944601,0,5.1673314,22.55436424,26.46991555,15,5,15.947,999.5225441,105.971132,5.2344396,22.55436424,4.921268,-1.565858,0.223694,334.4,2.4,-1.8,0,0,1282,1024,1026,1024,39,0,0,0,336.8,-29.4,0,98,3.98,4.01,4.017,4.014,0,0,11.124,84.11,999.1944601,105.643048,6,P-GPS,
15000,7/12/2021 19:52,38.10421675,-84.75726067,105.643048,106.463258,892.7312021,999.1944601,0,5.1673314,23.46840626,27.38773054,15,5,15.947,999.5225441,105.971132,5.2344396,23.46840626,5.144962,-1.565858,0,334.3,2.8,-1.8,0,0,1280,1024,1028,1024,39,0,1,0,336.8,-29.4,0,98,3.98,4.01,4.017,4.014,0,0,11.124,84.11,999.1944601,105.643048,6,P-GPS,
15100,7/12/2021 19:52,38.10421943,-84.75726167,105.643048,106.4960664,892.6983937,999.1944601,0,5.368656,24.48609002,28.40830143,15,5,15.947,999.5225441,105.971132,5.368656,24.48609002,5.144962,-1.565858,0,334.3,2.8,-2.4,0,0,1261,1024,1024,1024,36,0,0,0,336.7,-29.4,0,98,3.98,4.01,4.017,4.014,0,0,11.124,84.11,999.1944601,105.643048,6,P-GPS,
15200,7/12/2021 19:52,38.10422191,-84.75726258,105.643048,106.5616832,892.6327769,999.1944601,0,5.368656,25.42516486,29.34973847,15,5,15.947,999.5225441,105.971132,5.368656,25.42516486,5.144962,-1.565858,0,334.4,3.1,-2.8,0,0,1268,1024,1024,1086,37,0,0,9,336.6,-29.4,0,98,3.98,4.01,4.017,4.014,0,0,11.124,84.11,999.1944601,105.643048,6,P-GPS,
15300,7/12/2021 19:52,38.10422461,-84.7572635,105.643048,106.5944916,892.5999685,999.1944601,0,5.368656,26.44360321,30.36942354,15,5,15.947,999.5225441,105.971132,5.368656,26.44360321,5.144962,-1.565858,0,334.4,3,-3.3,0,0,1273,1024,1025,1079,38,0,0,8,336.6,-29.4,0,98,3.98,4.01,4.017,4.014,0,0,11.124,84.11,999.1944601,105.643048,6,P-GPS,
15400,7/12/2021 19:52,38.10422709,-84.75726439,105.643048,106.6273,892.5671601,999.1944601,0,5.368656,27.38225153,31.30964667,15,5,15.947,999.5225441,105.971132,5.368656,27.38225153,5.144962,-1.565858,0,334.4,3.2,-3.7,0,0,1274,1024,1026,1068,38,0,0,7,336.7,-29.4,0,98,3.98,4.01,4.017,4.014,0,0,11.124,84.11,999.1944601,105.643048,6,P-GPS,
15500,7/12/2021 19:52,38.10422979,-84.75726538,105.643048,106.6601084,892.5343517,999.1944601,0,5.368656,28.4062017,32.33563096,15,5,15.947,999.5225441,105.971132,5.368656,28.4062017,5.144962,-1.565858,0,334.6,3,-3.5,0,0,1275,1024,1026,1087,38,0,0,10,336.7,-29.4,0,98,3.98,4.01,4.017,4.014,0,0,11.124,84.11,999.1944601,105.643048,6,P-GPS,
15600,7/12/2021 19:52,38.10423227,-84.75726633,105.643048,106.6929168,892.5015433,999.1944601,0,5.368656,29.34698257,33.27887246,15,5,15.947,999.5225441,105.971132,5.368656,29.34698257,5.144962,-1.565858,0,334.5,2.6,-2.5,0,0,1279,1024,1025,1121,39,0,0,15,336.8,-29.4,0,98,3.98,4.01,4.017,4.014,0,0,11.124,84.11,999.1944601,105.643048,6,P-GPS,
15700,7/12/2021 19:52,38.10423497,-84.7572674,105.643048,106.7585336,892.4359265,999.1944601,0,5.368656,30.37529625,34.31069664,15,5,15.947,999.5225441,105.971132,5.368656,30.37529625,5.144962,-1.565858,0,334.7,2.2,-2,0,0,1279,1024,1024,1134,39,0,0,17,337,-29.4,0,98,3.98,4.01,4.017,4.014,0,0,11.124,84.11,999.1944601,105.643048,6,P-GPS,
15800,7/12/2021 19:52,38.10423746,-84.75726838,105.643048,106.791342,892.4031181,999.1944601,0,5.368656,31.32519785,35.26312449,15,5,15.947,999.5225441,105.971132,5.368656,31.32519785,5.144962,-1.565858,0,335.2,2.2,-2.1,0,0,1279,1024,1026,1149,39,0,0,19,337.3,-29.4,0,98,3.98,4.01,4.017,4.014,0,0,11.124,84.11,999.1944601,105.643048,6,P-GPS,
15900,7/12/2021 19:52,38.10424023,-84.7572694,105.643048,106.8241504,892.3703097,999.1944601,0,5.368656,32.37647741,36.31594604,15,5,15.947,999.5225441,105.971132,5.368656,32.37647741,5.144962,-1.565858,0,336,2.1,-2,0,0,1278,1024,1026,1148,38,0,0,19,337.9,-29.4,0,98,3.98,4.01,4.017,4.014,0,0,11.124,84.11,999.1944601,105.643048,6,P-GPS,
16000,7/12/2021 19:52,38.10424279,-84.75727034,105.643048,106.8897672,892.3046929,999.1944601,0,5.368656,33.34580159,37.2867466,15,5,15.947,999.5225441,105.971132,5.368656,33.34580159,5.144962,-1.565858,0,337.3,1.5,-2.3,0,0,1279,1024,1024,1172,39,0,0,22,338.5,-29.4,0,98,3.98,4.01,4.017,4.014,0,0,11.124,84.11,999.1944601,105.643048,6,P-GPS,
16100,7/12/2021 19:52,38.10424558,-84.75727136,105.643048,106.9225756,892.2718845,999.1944601,0,5.368656,34.40190399,38.34383325,15,5,15.947,999.5225441,105.971132,5.368656,34.40190399,5.144962,-1.565858,0,338.8,1.7,-2.4,0,0,1293,1024,1024,1213,41,0,0,29,339.2,-29.4,0,98,3.98,4.01,4.017,4.014,0,0,11.124,84.11,999.1944601,105.643048,6,P-GPS,
16200,7/12/2021 19:52,38.10424817,-84.75727232,105.643048,106.955384,892.2390761,999.1944601,0,5.59235,35.3858279,39.32939758,15,5,15.893,999.5225441,105.971132,5.59235,35.3858279,5.368656,-1.565858,0,340.3,2.8,-2.3,0,0,1321,1024,1024,1275,45,0,0,38,340.2,-29.4,0,97,3.965,3.996,4.003,3.997,0,0,11.896,84.11,999.1944601,105.643048,6,P-GPS,
16300,7/12/2021 19:52,38.10425092,-84.75727341,105.643048,107.0210008,892.1734593,999.1944601,0,5.59235,36.43405628,40.37992255,15,5,15.893,999.5225441,105.971132,5.59235,36.43405628,5.368656,-1.565858,0,342.3,3.6,-2.1,0,0,1327,1024,1024,1284,46,0,0,39,341.5,-29.4,0,97,3.965,3.996,4.003,3.997,0,0,11.896,84.11,999.1944601,105.643048,6,P-GPS,
16400,7/12/2021 19:52,38.10425347,-84.75727441,105.643048,107.0538092,892.1406509,999.1944601,0,5.59235,37.40649726,41.35433203,15,5,15.893,999.5225441,105.971132,5.59235,37.40649726,5.368656,-1.565858,0,345.5,3.5,-1.9,0,0,1335,1024,1029,1214,47,0,1,29,343.4,-29.4,0,97,3.965,3.996,4.003,3.997,0,0,11.896,84.11,999.1944601,105.643048,6,P-GPS,
16500,7/12/2021 19:52,38.10425615,-84.75727542,105.643048,107.0866176,892.1078425,999.1944601,0,5.59235,38.42651042,42.37565752,15,5,15.893,999.5225441,105.971132,5.59235,38.42651042,5.368656,-1.565858,0,349.7,2.9,-1.3,0,0,1335,1024,1029,1214,47,0,1,29,345.9,-29.4,0,97,3.965,3.996,4.003,3.997,0,0,11.896,84.11,999.1944601,105.643048,6,P-GPS,
16600,7/12/2021 19:52,38.10425887,-84.75727643,105.643048,107.1522344,892.0422257,999.1944601,0,5.59235,39.45997502,43.41043446,15,5,15.893,999.5225441,105.971132,5.59235,39.45997502,5.368656,-1.565858,0,353.5,2.7,-0.7,0,0,1373,1024,1028,1113,53,0,1,13,348.8,-29.4,0,97,3.965,3.996,4.003,3.997,0,0,11.896,84.11,999.1944601,105.643048,6,P-GPS,
16700,7/12/2021 19:52,38.1042615,-84.75727742,105.643048,107.1850428,892.0094173,999.1944601,0,5.59235,40.45833463,44.40977832,15,5,15.893,999.5225441,105.971132,5.59235,40.45833463,5.368656,-1.565858,0,356.1,2.3,0,0,0,1374,1024,1032,1059,53,0,1,5,351.3,-29.4,0,97,3.965,3.996,4.003,3.997,0,0,11.896,84.11,999.1944601,105.643048,6,P-GPS,
16800,7/12/2021 19:52,38.10426409,-84.75727835,105.643048,107.2178512,891.9766089,999.1944601,0,5.5252418,41.43930579,45.39140565,15,5,15.893,999.5225441,105.971132,5.59235,41.43930579,5.368656,-1.342164,0,357.5,1.5,0.5,0,0,1374,1024,1032,1059,53,0,1,5,353.2,-29.4,0,97,3.965,3.996,4.003,3.997,0,0,11.896,84.11,999.1944601,105.643048,6,P-GPS,
16900,7/12/2021 19:52,38.10426683,-84.75727932,105.643048,107.283468,891.9109921,999.1944601,0,5.5252418,42.47473889,46.42749492,15,5,15.893,999.5225441,105.971132,5.59235,42.47473889,5.59235,-1.342164,0,358.3,0.7,0.8,0,0,1377,1024,1033,1024,53,0,1,0,354.4,-29.4,0,97,3.965,3.996,4.003,3.997,0,0,11.896,84.11,999.1944601,105.643048,6,P-GPS,
17000,7/12/2021 19:52,38.10426944,-84.75728017,105.643048,107.3162764,891.8781837,999.1944601,0,5.7489358,43.45931898,47.41174692,15,5,15.893,999.5225441,105.971132,5.7489358,43.45931898,5.59235,-1.342164,0,358.4,0.2,1,0,0,1375,1024,1025,1021,53,0,0,0,355.7,-29.4,0,97,3.965,3.996,4.003,3.997,0,0,11.896,84.11,999.1944601,105.643048,6,P-GPS,
17200,7/12/2021 19:52,38.10427491,-84.75728183,105.643048,107.4147016,891.7797585,999.1944601,0,5.927891,45.51115631,49.46391234,15,5,15.866,999.5225441,105.971132,5.927891,45.51115631,5.816044,-1.11847,0,358.3,0,0.9,0,0,1360,1024,1025,1021,51,0,0,0,356,-29.4,0,97,3.965,3.996,4,3.996,0,0,11.812,84.11,999.1944601,105.643048,6,P-GPS,
17300,7/12/2021 19:52,38.10427776,-84.75728257,105.643048,107.44751,891.7469501,999.1944601,0,6.151585,46.57217997,50.52559217,15,5,15.866,999.5225441,105.971132,6.151585,46.57217997,6.039738,-1.11847,0,358.3,-0.1,1.5,0,0,1354,1024,1024,999,50,0,0,-4,356.2,-29.4,0,97,3.965,3.996,4,3.996,0,0,11.812,84.11,999.1944601,105.643048,6,P-GPS,
17400,7/12/2021 19:52,38.10428051,-84.75728322,105.643048,107.4803184,891.7141417,999.1944601,0,6.1068462,47.58924037,51.54429299,15,5,15.866,999.5225441,105.971132,6.151585,47.58924037,6.039738,-0.894776,0,358.3,0,1.7,0,0,1372,1024,1024,1015,53,0,0,-1,356.4,-29.4,0,97,3.965,3.996,4,3.996,0,0,11.812,84.11,999.1944601,105.643048,6,P-GPS,
17500,7/12/2021 19:52,38.1042834,-84.75728396,105.643048,107.5131268,891.6813333,999.1944601,0,6.1068462,48.66437164,52.62040851,15,5,15.866,999.5225441,105.971132,6.151585,48.66437164,6.039738,-0.894776,0,358.3,0.1,1.5,0,0,1400,1024,1026,1024,57,0,0,0,356.5,-29.4,0,97,3.965,3.996,4,3.996,0,0,11.812,84.11,999.1944601,105.643048,6,P-GPS,
17600,7/12/2021 19:52,38.10428619,-84.75728457,105.643048,107.5787436,891.6157165,999.1944601,0,6.3305402,49.6945554,53.65288886,15,5,15.866,999.5225441,105.971132,6.3305402,49.6945554,6.263432,-0.894776,0,358.2,0.1,1.2,0,0,1415,1024,1030,1024,59,0,1,0,356.6,-29.4,0,97,3.965,3.996,4,3.996,0,0,11.812,84.11,999.1944601,105.643048,6,P-GPS,
17700,7/12/2021 19:52,38.10428906,-84.75728509,105.643048,107.611552,891.5829081,999.1944601,0,6.3081708,50.74803312,54.71095976,15,5,15.866,999.5225441,105.971132,6.3305402,50.74803312,6.263432,-0.671082,0,358.2,-0.5,0.9,0,0,1450,1024,1031,1024,65,0,1,0,356.6,-29.4,0,97,3.965,3.996,4,3.996,0,0,11.812,84.11,999.1944601,105.643048,6,P-GPS,
17800,7/12/2021 19:52,38.10429204,-84.75728558,105.643048,107.6443604,891.5500997,999.1944601,0,6.5318648,51.83792817,55.80676032,15,5,15.866,999.5225441,105.971132,6.5318648,51.83792817,6.487126,-0.671082,0,358.2,-1.5,0.3,0,0,1480,1024,1024,1024,69,0,0,0,356.7,-29.4,0,97,3.965,3.996,4,3.996,0,0,11.812,84.11,999.1944601,105.643048,6,P-GPS,
17900,7/12/2021 19:52,38.10429504,-84.75728602,105.643048,107.6771688,891.5172913,999.1944601,0,6.5318648,52.93307256,56.90977872,15,5,15.866,999.5225441,105.971132,6.5318648,52.93307256,6.487126,-0.671082,0,358.2,-2.8,0,0,0,1484,1024,1024,1024,70,0,0,0,356.7,-29.4,0,97,3.965,3.996,4,3.996,0,0,11.812,84.11,999.1944601,105.643048,6,P-GPS,
18000,7/12/2021 19:52,38.10429819,-84.75728648,105.643048,107.7099772,891.4844829,999.1944601,0,6.7331894,54.08333506,58.06758716,15,5,15.866,999.5225441,105.971132,6.7331894,54.08333506,6.71082,-0.671082,0,358.2,-4.2,0,0,0,1493,1024,1024,1024,71,0,0,0,356.8,-29.4,0,97,3.965,3.996,4,3.996,0,0,11.812,84.11,999.1944601,105.643048,6,P-GPS,
18100,7/12/2021 19:52,38.1043013,-84.75728693,105.643048,107.775594,891.4188661,999.1944601,0,6.9568834,55.2185057,59.21030373,15,5,15.866,999.5225441,105.971132,6.9568834,55.2185057,6.934514,-0.671082,0,358.2,-5.3,0,0,0,1487,1024,1024,1024,70,0,0,0,356.8,-29.4,0,97,3.965,3.996,4,3.996,0,0,11.812,84.11,999.1944601,105.643048,6,P-GPS,
18200,7/12/2021 19:52,38.1043046,-84.75728742,105.643048,107.8084024,891.3860577,999.1944601,0,7.1805774,56.42126165,60.41962136,15,5,15.92,999.5225441,105.971132,7.1805774,56.42126165,7.158208,-0.671082,0,358.1,-6.3,0.1,0,0,1485,1024,1024,1024,70,0,0,0,356.9,-29.4,0,97,3.967,3.998,4.006,4.001,0,0,11.434,84.11,999.1944601,105.643048,6,P-GPS,
18300,7/12/2021 19:52,38.10430791,-84.75728789,105.643048,107.8740192,891.3204409,999.1944601,0,7.6279654,57.62893885,61.63484449,15,5,15.92,999.5225441,105.971132,7.6279654,57.62893885,7.605596,-0.671082,0,358,-6.9,0.6,0,0,1484,1024,1024,1024,70,0,0,0,356.9,-29.4,0,97,3.967,3.998,4.006,4.001,0,0,11.434,84.11,999.1944601,105.643048,6,P-GPS,
